{"neighbours": {"e": "loc_-0.1072_51.7945", "sw": "loc_0.0035_51.5731", "ne": "loc_-0.2179_51.7945", "n": "loc_-0.2179_51.6838", "s": "loc_0.0035_51.6838", "w": "loc_-0.1072_51.5731", "x": "loc_-0.1072_51.6838", "se": "loc_0.0035_51.7945", "nw": "loc_-0.2179_51.5731"}, "box_title": "Broxbourne", "results": [{"description": "Wormley is a village in Hertfordshire, England. It is within the Borough of Broxbourne. The village is part of the census ward of Wormley and Turnford, which has a population of 8,146. Wormley is located east of the A10 road which links Cambridge to London, commonly known as the Great Cambridge Road (...)", "wgs84_lat": 51.72, "title": "Wormley, Hertfordshire", "url": "http://en.wikipedia.org/wiki/Wormley%2C_Hertfordshire", "rank": "", "wgs84_lon": -0.02, "type": "wikipeida"}, {"description": "Brickendon is a village in the civil parish of Brickendon Liberty in the district of East Hertfordshire about 3 miles south of the county town Hertford, and is served by Bayford railway station. Centred around a traditional village green and a friendly village pub, The Farmer's Boy, there is an (...)", "wgs84_lat": 51.75, "title": "Brickendon", "url": "http://en.wikipedia.org/wiki/Brickendon", "rank": "", "wgs84_lon": -0.0833, "type": "wikipeida"}, {"description": "Hertford Heath is a small village and civil parish near the county town of Hertford in Hertfordshire, England.  (...)", "wgs84_lat": 51.78333333333333, "title": "Hertford Heath", "url": "", "rank": "", "wgs84_lon": -0.05, "type": "wikipeida"}, {"description": "St Margarets, or more correctly Stanstead St Margarets, is a village and civil parish in the district of East Hertfordshire, Hertfordshire, England. It is located half way between the towns of Hoddesdon and Ware (...)", "wgs84_lat": 51.79, "title": "Stanstead St Margarets", "url": "", "rank": "", "wgs84_lon": 0.0, "type": "wikipeida"}, {"description": "Goffs Oak is a large village in the borough of Broxbourne in Hertfordshire in the United Kingdom. It is situated between Cuffley and Cheshunt, just north of the M25 motorway in a slightly more rural section of the London commuter belt (...)", "wgs84_lat": 51.7109, "title": "Goffs Oak", "url": "", "rank": "", "wgs84_lon": -0.0825, "type": "wikipeida"}, {"description": "Broxbourne is a commuter town in the Broxbourne borough of Hertfordshire in the East of England with a population of 13,298 in 2001. It is located 17.1 miles (27.5 km) north north-east of Charing Cross in London and about a mile (1.6 km) north of Wormley and south of Hoddesdon (...)", "wgs84_lat": 51.7495, "title": "Broxbourne", "url": "", "rank": "", "wgs84_lon": -0.0216, "type": "wikipeida"}, {"description": "Hertingfordbury is a small village and civil parish in Hertfordshire, England, close to the county town of Hertford. It was mentioned in the Domesday Book.  (...)", "wgs84_lat": 51.79, "title": "Hertingfordbury", "url": "http://en.wikipedia.org/wiki/Hertingfordbury", "rank": "", "wgs84_lon": -0.105, "type": "wikipeida"}]}