{"neighbours": {"e": "loc_-0.55_51.5731", "sw": "loc_-0.4393_51.3517", "ne": "loc_-0.6607_51.5731", "n": "loc_-0.6607_51.4624", "s": "loc_-0.4393_51.4624", "w": "loc_-0.55_51.3517", "x": "loc_-0.55_51.4624", "se": "loc_-0.4393_51.5731", "nw": "loc_-0.6607_51.3517"}, "box_title": "Iver Village and Richings Park", "results": [{"description": "<p>Another day, another list. And who doesn't love a list which reveals Britain's grimiest hotels, as reviewed by real guests?</p>", "wgs84_lat": 51.54147217946911, "title": "The perfect place for a dirty weekend", "url": "http://www.guardian.co.uk/travel/blog/2007/jan/18/theperfectplaceforadirty", "rank": "", "wgs84_lon": -0.4456618388336298, "type": "guardian-article"}, {"description": "Middlesex was one of the historic counties of England and the second smallest by area. The low-lying county contained the wealthy and politically independent City of London on its southern boundary and was dominated by it from a very early time.The Proceedings of the Old Bailey -  (...)", "wgs84_lat": 51.503823, "title": "Middlesex", "url": "http://en.wikipedia.org/wiki/Middlesex", "rank": "", "wgs84_lon": -0.469547, "type": "wikipeida"}, {"description": "Brunel University is a British higher education institution situated in Uxbridge, west London. The university is named after the Victorian engineer Isambard Kingdom Brunel.  (...)", "wgs84_lat": 51.53234825027778, "title": "Brunel University", "url": "http://en.wikipedia.org/wiki/Brunel_University", "rank": "", "wgs84_lon": -0.46715497972222225, "type": "wikipeida"}, {"description": "Iver is in the south-east corner of the English county of Buckinghamshire and it forms one of the largest civil parishes in the South Bucks district. Iver railway station is in Richings Park.  (...)", "wgs84_lat": 51.5206, "title": "Iver", "url": "http://en.wikipedia.org/wiki/Iver", "rank": "", "wgs84_lon": -0.5071, "type": "wikipeida"}, {"description": "Colnbrook is a large village in the unitary authority of Slough, in Berkshire, England. It is situated 3.5 miles (5.5km) southeast of central Slough, 9 km (5.5 miles) east of Windsor and 19 miles (30km) west of London (...)", "wgs84_lat": 51.4835, "title": "Colnbrook", "url": "", "rank": "", "wgs84_lon": -0.5221, "type": "wikipeida"}]}