{"neighbours": {"e": "loc_-0.1072_51.6838", "sw": "loc_0.0035_51.4624", "ne": "loc_-0.2179_51.6838", "n": "loc_-0.2179_51.5731", "s": "loc_0.0035_51.5731", "w": "loc_-0.1072_51.4624", "x": "loc_-0.1072_51.5731", "se": "loc_0.0035_51.6838", "nw": "loc_-0.2179_51.4624"}, "box_title": "Edmonton", "results": [{"description": "<p>West London comes alive to the sights, sounds and colour of the Caribbean this holiday weekend.  Joanne O'Connor guides you around Europe's biggest street event.</p>", "wgs84_lat": 51.594022054950145, "title": "Party like there's no tomorrow", "url": "", "rank": "", "wgs84_lon": -0.012645366974985478, "type": "guardian-article"}, {"description": "<p>Paul Simon mounted a 350cc Royal Enfield Bullet to take an unforgettable tour of Goa, where he had to forget the Highway Code and beware of sacred cows</p>", "wgs84_lat": 51.650991964961314, "title": "Forty is a dangerous age for bikers like me", "url": "", "rank": "", "wgs84_lon": -0.08726455756781029, "type": "guardian-article", "attachments": [{"url": "http://static.guim.co.uk/sys-images/Travel/Pix/pictures/2003/12/01/motor256.jpg", "caption": "On the Goa ... Turtle Bay, near Coondapur, Karnataka. Photo: Gareth Price"}]}, {"description": "<p>Andrew Spooner goes in search of the world's few remaining tigers in some of the most far-flung  reaches of the sub-continent.</p>", "wgs84_lat": 51.650991964961314, "title": "Big cat's cradle", "url": "", "rank": "", "wgs84_lon": -0.08726455756781029, "type": "guardian-article", "attachments": [{"url": "http://static.guim.co.uk/sys-images/Travel/Pix/pictures/2002/08/23/tiger.jpg", "caption": "Cat call  ... the best time to spot tigers is in April. Photo: Corbis"}]}, {"description": "<p>Sarah Tucker has interviewed scores of teenagers for her new book. Here, with the school holidays upon us, she tells you what will make them happy.</p>", "wgs84_lat": 51.650991964961314, "title": "How to avoid teen tantrums", "url": "", "rank": "", "wgs84_lon": -0.08726455756781029, "type": "guardian-article", "attachments": [{"url": "http://static.guim.co.uk/sys-images/Travel/Pix/pictures/2002/07/19/teen.jpg", "caption": "undefined"}]}, {"description": "<p>Whether it's a lighthouse, a yacht or a Tuscan villa, everyone needs somewhere they can let off steam. We find out who's going where this summer.</p>", "wgs84_lat": 51.650991964961314, "title": "I'm a celebrity - and I'm getting out of here", "url": "", "rank": "", "wgs84_lon": -0.08726455756781029, "type": "guardian-article", "attachments": [{"url": "http://static.guim.co.uk/sys-images/Travel/Pix/pictures/2007/07/14/StTropez_AFP_JacquesMunch46.jpg", "caption": "High life ... Yachts in Stropez. Photograph: AFP/Jacques Munch"}]}, {"description": "<p>Stephen McClarence  takes his seat for a Hebridean coach trip that's the antidote to package tours: no shortbread, kilts or bagpipes - just deadpan jokes, wild nature and a rather puzzling teddy bear.</p>", "wgs84_lat": 51.650991964961314, "title": "Rolling in the  isles", "url": "", "rank": "", "wgs84_lon": -0.08726455756781029, "type": "guardian-article", "attachments": [{"url": "http://static.guim.co.uk/sys-images/Travel/Pix/pictures/2001/06/18/isle1.gif", "caption": "undefined"}]}, {"description": "<p>A cyclist blogger in Waltham Forest, north-east London, believes the Netherlands has the answer</p>", "wgs84_lat": 51.594022054950145, "title": "Can a 'cycle revolution' happen without an infrastructure revolution too?", "url": "", "rank": "", "wgs84_lon": -0.012645366974985478, "type": "guardian-article"}, {"description": "Essex", "wgs84_lat": 51.594022054950145, "title": "Debden House", "url": "", "rank": "", "wgs84_lon": -0.012645366974985478, "type": "guardian-article", "attachments": [{"url": "http://static.guim.co.uk/sys-images/Lifeandhealth/Pix/pictures/2007/05/11/debden_house.jpg", "caption": "undefined"}]}, {"description": "<p>Why come back from your break with nothing to show for it but a credit-card bill?  Gavin Naden  on where you can have fun gaining new skills.</p>", "wgs84_lat": 51.594022054950145, "title": "Learning curves", "url": "", "rank": "", "wgs84_lon": -0.012645366974985478, "type": "guardian-article", "attachments": [{"url": "http://static.guim.co.uk/sys-images/Travel/Pix/pictures/2001/05/04/painting.gif", "caption": "undefined"}]}, {"description": "Enfield Lock railway station is in the London Borough of Enfield in north east London, and is in Travelcard Zone 6, on the Tottenham Hale branch of the Lea Valley Lines, on the West Anglian Railway. The station, and all trains serving it, are operated by National Express East Anglia (...)", "wgs84_lat": 51.6709, "title": "Enfield Lock railway station", "url": "http://en.wikipedia.org/wiki/Enfield_Lock_railway_station", "rank": "", "wgs84_lon": -0.0284, "type": "wikipeida"}, {"description": "White Hart Lane station in Tottenham was originally a station on the Stoke Newington & Edmonton Railway: it opened on 22 July 1872. It is currently operated by National Express East Anglia and is in Travelcard Zone 3, on the Seven Sisters branch of the Lea Valley Lines (...)", "wgs84_lat": 51.605, "title": "White Hart Lane railway station", "url": "http://en.wikipedia.org/wiki/White_Hart_Lane_railway_station", "rank": "", "wgs84_lon": -0.071, "type": "wikipeida"}, {"description": "Angel Road railway station is in the London Borough of Enfield at Edmonton in north east London, and is in Travelcard Zone 4, on the Tottenham Hale branch of the Lea Valley Lines. The station, and all trains serving it, is operated by National Express East Anglia (...)", "wgs84_lat": 51.6118, "title": "Angel Road railway station", "url": "http://en.wikipedia.org/wiki/Angel_Road_railway_station", "rank": "", "wgs84_lon": -0.0495, "type": "wikipeida"}, {"description": "Bruce Grove railway station in Tottenham was originally a station on the Stoke Newington & Edmonton Railway which opened on 22 July 1872 . It is not far from Bruce Castle In the early 1980s several changes were made to the appearance of the station (...)", "wgs84_lat": 51.594, "title": "Bruce Grove railway station", "url": "", "rank": "", "wgs84_lon": -0.0704, "type": "wikipeida"}, {"description": "Edmonton Green railway station is a station in the London Borough of Enfield in north east London on the White hart lane branch of the Lea Valley Lines. The station and all trains serving it are operated by National Express East Anglia. It is in Travelcard Zone 4 (...)", "wgs84_lat": 51.6242, "title": "Edmonton Green railway station", "url": "http://en.wikipedia.org/wiki/Edmonton_Green_railway_station", "rank": "", "wgs84_lon": -0.0614, "type": "wikipeida"}]}